ID,Address,City,State,Country,Name,Employees,Latitude,Longitude
1,3666 21st St,San Francisco,CA 94114,USA,Madeira,8,27.640308714285716,-80.42307751020408
2,735 Dolores St,San Francisco,CA 94119,USA,Bready Shop,15,37.757826800000004,-122.42539238108796
3,332 Hill St,San Francisco,California 94114,USA,Super River,25,33.043088979591836,-85.0237166122449
4,3995 23rd St,San Francisco,CA 94114,USA,Ben's Shop,10,37.7529648,-122.4317141
5,1056 Sanchez St,San Francisco,California,USA,Sanchez,12,37.75214375,-122.42997677673961
6,551 Alvarado St,San Francisco,CA 94114,USA,Richvalley,20,32.56269958286103,-97.14648556972956
